{
  "type": "FeatureCollection",
  "features": [
    {
      "type": "Feature",
      "properties": {
        "label": "Battles of Lexington and Concord",
        "name": "First",
        "date": "4-19-1775",
        "victor": "Blue"
      },
      "geometry": {
        "type": "Point",
        "coordinates": [
          -71.225165766,
          42.4431148942
        ]
      }
    },
    {
      "type": "Feature",
      "properties": {
        "label": "Battle of Bunker Hill",
        "name": "Second",
        "date": "6-17-1775",
        "victor": "Red"
      },
      "geometry": {
        "type": "Point",
        "coordinates": [
          -71.0564664408,
          42.3724818434
        ]
      }
    },
    {
      "type": "Feature",
      "properties": {
        "label": "Battle of Quebec",
        "name": "Third",
        "date": "12-31-1775",
        "victor": "Red"
      },
      "geometry": {
        "type": "Point",
        "coordinates": [
          -71.2013825278,
          46.8090567638
        ]
      }
    },
    {
      "type": "Feature",
      "properties": {
        "label": "Siege of Boston",
        "name": "Fourth",
        "date": "3-17-1776",
        "victor": "Blue"
      },
      "geometry": {
        "type": "Point",
        "coordinates": [
          -71.0547114478,
          42.3579402349
        ]
      }
    },
    {
      "type": "Feature",
      "properties": {
        "label": "Battle of Fort Sullivan",
        "name": "Fifth",
        "date": "6-28-1776",
        "victor": "Blue"
      },
      "geometry": {
        "type": "Point",
        "coordinates": [
          -80.6221391781,
          34.738502046
        ]
      }
    },
    {
      "type": "Feature",
      "properties": {
        "label": "Battle of Long Island",
        "name": "Sixth",
        "date": "9-27-1776",
        "victor": "Red"
      },
      "geometry": {
        "type": "Point",
        "coordinates": [
          -73.981,
          40.665
        ]
      }
    },
    {
      "type": "Feature",
      "properties": {
        "label": "Battle of Fort Washington",
        "name": "Seventh",
        "date": "11-16-1776",
        "victor": "Red"
      },
      "geometry": {
        "type": "Point",
        "coordinates": [
          -73.938,
          40.853
        ]
      }
    },
    {
      "type": "Feature",
      "properties": {
        "label": "Battle of Trenton",
        "name": "Eighth",
        "date": "12-26-1776",
        "victor": "Blue"
      },
      "geometry": {
        "type": "Point",
        "coordinates": [
          -74.755,
          40.218
        ]
      }
    },
    {
      "type": "Feature",
      "properties": {
        "label": "Battle of Freeman Farm",
        "name": "Nineth",
        "date": "9-19-1777",
        "victor": "Red"
      },
      "geometry": {
        "type": "Point",
        "coordinates": [
          -73.64722,
          43.00593
        ]
      }
    },
    {
      "type": "Feature",
      "properties": {
        "label": "Battle of Bemis Heights",
        "name": "Tenth",
        "date": "10-7-1777",
        "victor": "Blue"
      },
      "geometry": {
        "type": "Point",
        "coordinates": [
          -73.63345,
          42.97119
        ]
      }
    },
    {
      "type": "Feature",
      "properties": {
        "label": "Battle of Newport",
        "name": "Eleventh",
        "date": "8-29-1778",
        "victor": "Red"
      },
      "geometry": {
        "type": "Point",
        "coordinates": [
          -71.263,
          41.596
        ]
      }
    },
    {
      "type": "Feature",
      "properties": {
        "label": "Siege of Charleston",
        "name": "Twelfth",
        "date": "5-12-1780",
        "victor": "Red"
      },
      "geometry": {
        "type": "Point",
        "coordinates": [
          -79.9385395792,
          32.7898501739
        ]
      }
    },
    {
      "type": "Feature",
      "properties": {
        "label": "Battle of Kings Mountain",
        "name": "Thirteenth",
        "date": "10-7-1780",
        "victor": "Blue"
      },
      "geometry": {
        "type": "Point",
        "coordinates": [
          -81.39359,
          35.11935
        ]
      }
    },
    {
      "type": "Feature",
      "properties": {
        "label": "Battle of Cowpens",
        "name": "Fourteenth",
        "date": "1-17-1781",
        "victor": "Blue"
      },
      "geometry": {
        "type": "Point",
        "coordinates": [
          -81.8095967616,
          35.1354327916
        ]
      }
    },
    {
      "type": "Feature",
      "properties": {
        "label": "Siege of Yorktown",
        "name": "Fifteenth",
        "date": "10-19-1781",
        "victor": "Blue"
      },
      "geometry": {
        "type": "Point",
        "coordinates": [
          -76.510692,
          37.239301
        ]
      }
    }
  ]
}
